City_ID,City,Country,Lat,Lng,Max Temp,Humidity,Cloudiness,Wind Speed,Current Description
0,Rikitea,PF,-23.1203,-134.9692,72.16,76,10,16.13,light rain
1,Caravelas,BR,-17.7125,-39.2481,72.91,90,4,4.52,clear sky
2,Bethanien,NA,-26.502,17.1583,44.89,74,40,6.33,scattered clouds
3,Ponta Do Sol,PT,32.6667,-17.1,74.01,82,8,6.89,clear sky
4,Mwinilunga,ZM,-11.7358,24.4293,58.32,42,0,1.86,clear sky
5,Nikolskoye,RU,59.7035,30.7861,57.79,96,5,4.56,clear sky
6,Hofn,IS,64.2539,-15.2082,51.15,62,99,6.44,overcast clouds
7,Lebu,CL,-37.6167,-73.65,49.32,86,95,8.97,overcast clouds
8,Kapaa,US,22.0752,-159.319,84.52,73,75,11.5,broken clouds
9,Alofi,NU,-19.0595,-169.9187,75.09,94,3,11.5,clear sky
10,Khatanga,RU,71.9667,102.5,50.95,87,100,13.44,light rain
11,Kaitangata,NZ,-46.2817,169.8464,41.13,87,87,12.03,overcast clouds
12,Ushuaia,AR,-54.8,-68.3,44.26,61,20,18.41,few clouds
13,Victoria,HK,22.2855,114.1577,85.32,88,40,3.0,scattered clouds
14,Carnarvon,AU,-24.8667,113.6333,59.23,58,73,14.0,broken clouds
15,Arraial Do Cabo,BR,-22.9661,-42.0278,67.96,68,0,12.66,clear sky
16,Iqaluit,CA,63.7506,-68.5145,40.73,93,100,9.22,light rain
17,Atuona,PF,-9.8,-139.0333,76.82,78,11,16.24,few clouds
18,Sept-Iles,CA,50.2001,-66.3821,75.2,67,75,11.5,broken clouds
19,Bredasdorp,ZA,-34.5322,20.0403,48.63,86,92,5.82,overcast clouds
20,New Norfolk,AU,-42.7826,147.0587,47.91,79,100,3.27,light rain
21,Sungaipenuh,ID,-2.0833,101.3833,63.59,88,99,1.61,overcast clouds
22,Tiksi,RU,71.6872,128.8694,48.34,78,43,4.43,scattered clouds
23,Punta Arenas,CL,-53.15,-70.9167,42.91,65,40,6.91,scattered clouds
24,Barrow,US,71.2906,-156.7887,41.36,77,100,7.94,overcast clouds
25,Qaanaaq,GL,77.484,-69.3632,44.26,68,70,5.01,broken clouds
26,Kulhudhuffushi,MV,6.6221,73.07,80.51,81,100,17.65,light rain
27,Berbera,SO,10.4396,45.0143,90.5,42,2,21.56,clear sky
28,Walvis Bay,NA,-22.9575,14.5053,54.09,93,29,4.61,scattered clouds
29,Chokurdakh,RU,70.6333,147.9167,59.36,61,11,1.25,few clouds
30,Puerto Ayora,EC,-0.7393,-90.3518,80.56,86,56,7.0,broken clouds
31,Dikson,RU,73.5069,80.5464,40.68,93,16,11.79,few clouds
32,Alyangula,AU,-13.8483,136.4192,69.4,86,5,7.87,clear sky
33,Touros,BR,-5.1989,-35.4608,74.79,90,100,10.07,light rain
34,Phan Thiet,VN,10.9333,108.1,77.34,92,100,8.28,overcast clouds
35,Cowra,AU,-33.8333,148.6833,43.38,68,100,2.26,overcast clouds
36,Butaritari,KI,3.0707,172.7902,80.94,72,99,15.73,overcast clouds
37,Severo-Kurilsk,RU,50.6789,156.125,53.87,90,93,1.66,overcast clouds
38,Longyearbyen,SJ,78.2186,15.6401,49.84,81,75,10.36,broken clouds
39,Akyab,MM,20.15,92.9,82.89,79,100,6.64,overcast clouds
40,Vaini,TO,-21.2,-175.2,78.96,94,40,9.22,scattered clouds
41,Ostrovnoy,RU,68.0531,39.5131,57.4,91,66,7.94,broken clouds
42,Hobart,AU,-42.8794,147.3294,48.25,80,75,8.05,broken clouds
43,Sesheke,ZM,-17.4759,24.2968,56.61,27,1,5.73,clear sky
44,Mount Isa,AU,-20.7333,139.5,44.37,81,89,0.0,overcast clouds
45,Lavrentiya,RU,65.5833,-171.0,48.24,69,99,4.23,overcast clouds
46,Avarua,CK,-21.2078,-159.775,78.85,73,75,18.41,broken clouds
47,Busselton,AU,-33.65,115.3333,54.72,71,99,9.98,overcast clouds
48,Bambous Virieux,MU,-20.3428,57.7575,70.21,68,40,18.41,scattered clouds
49,Esperance,AU,-33.8667,121.9,47.17,80,59,17.49,broken clouds
50,Tura,IN,25.5198,90.2201,73.98,98,100,6.6,moderate rain
51,Albany,US,42.6001,-73.9662,81.57,50,24,1.01,few clouds
52,Cabo San Lucas,MX,22.8909,-109.9124,91.18,57,57,6.6,broken clouds
53,Rocha,UY,-34.4833,-54.3333,47.86,86,33,2.08,scattered clouds
54,Severo-Yeniseyskiy,RU,60.3725,93.0408,59.07,97,12,1.95,few clouds
55,Shunyi,CN,40.125,116.6453,75.15,100,0,2.24,clear sky
56,Fort Nelson,CA,58.8053,-122.7002,65.79,59,75,2.3,broken clouds
57,Gorontalo,ID,0.5412,123.0595,73.92,96,99,2.33,overcast clouds
58,Namatanai,PG,-3.6667,152.4333,81.54,69,97,6.69,overcast clouds
59,Ancud,CL,-41.8697,-73.8203,45.23,79,99,2.01,overcast clouds
60,Comodoro Rivadavia,AR,-45.8667,-67.5,48.06,43,0,9.22,clear sky
61,Kaeo,NZ,-35.1,173.7833,55.33,90,26,13.33,scattered clouds
62,Mocuba,MZ,-16.8392,36.9856,62.13,96,25,1.92,scattered clouds
63,San Rafael Del Sur,NI,11.8485,-86.4384,85.62,65,62,13.44,light rain
64,Georgetown,MY,5.4112,100.3354,80.53,92,20,2.3,few clouds
65,Jalingo,NG,8.8833,11.3667,72.1,96,100,3.89,overcast clouds
66,Bandarbeyla,SO,9.4942,50.8122,75.29,86,12,30.13,few clouds
67,Kodiak,US,57.79,-152.4072,55.31,95,100,7.38,light rain
68,Tuatapere,NZ,-46.1333,167.6833,40.15,88,94,5.17,light rain
69,Bodo,NO,67.28,14.405,60.78,79,0,5.75,clear sky
70,Roma,US,43.2128,-75.4557,76.51,64,3,5.01,clear sky
71,Mirzapur,IN,25.15,82.5833,86.45,68,100,7.36,overcast clouds
72,Dengzhou,CN,37.8086,120.7508,76.78,89,59,4.38,broken clouds
73,Powell,US,40.1578,-83.0752,82.6,51,0,3.0,clear sky
74,Rosa,IT,45.9306,12.8708,71.26,83,44,1.01,scattered clouds
75,Labuhan,ID,-6.8844,112.2051,74.21,86,52,8.57,broken clouds
76,Cidreira,BR,-30.1811,-50.2056,54.55,77,0,5.75,clear sky
77,Yeppoon,AU,-23.1333,150.7333,56.98,69,97,14.5,overcast clouds
78,Saint-Philippe,RE,-21.3585,55.7679,71.11,82,57,14.85,light rain
79,Bluff,NZ,-46.6,168.3333,46.76,79,99,15.86,overcast clouds
80,Lompoc,US,34.6391,-120.4579,77.0,62,0,13.8,clear sky
81,Clyde River,CA,70.4692,-68.5914,39.43,100,100,12.66,light rain
82,Hilo,US,19.7297,-155.09,90.28,76,100,11.5,overcast clouds
83,Cherskiy,RU,68.75,161.3,60.08,47,100,19.93,overcast clouds
84,Jamestown,US,42.097,-79.2353,77.02,49,75,10.36,broken clouds
85,Maceio,BR,-9.6658,-35.7353,76.44,94,75,4.61,broken clouds
86,Port Alfred,ZA,-33.5906,26.891,56.71,66,87,15.68,overcast clouds
87,Haldensleben,DE,52.2891,11.4098,64.81,73,67,3.04,broken clouds
88,Omsukchan,RU,62.5333,155.8,52.63,67,84,8.7,broken clouds
89,Leh,IN,34.1667,77.5833,62.71,56,42,6.6,scattered clouds
90,Katsuura,JP,35.1333,140.3,81.9,83,87,13.51,overcast clouds
91,Bhadrachalam,IN,17.6667,80.8833,78.28,91,93,3.4,overcast clouds
92,Belaya Gora,RU,68.5333,146.4167,61.7,68,0,3.33,clear sky
93,Mataura,NZ,-46.1927,168.8643,39.78,94,99,6.51,overcast clouds
94,Bay Roberts,CA,47.5999,-53.2648,69.06,93,100,8.99,overcast clouds
95,Centralia,US,46.7162,-122.9543,98.85,38,0,4.61,clear sky
96,Manuk Mangkaw,PH,4.8,119.85,83.19,74,100,8.68,overcast clouds
97,Monrovia,LR,6.3005,-10.7969,76.03,72,49,7.74,scattered clouds
98,Robertsport,LR,6.7533,-11.3686,77.32,70,40,9.33,scattered clouds
99,Faanui,PF,-16.4833,-151.75,79.09,69,1,23.47,clear sky
100,La Libertad,EC,-2.2333,-80.9,73.06,83,100,10.36,overcast clouds
101,Hermanus,ZA,-34.4187,19.2345,46.8,71,81,6.24,light rain
102,Yar-Sale,RU,66.8333,70.8333,46.58,70,4,11.25,clear sky
103,Yamethin,MM,20.4333,96.15,77.79,83,100,7.18,overcast clouds
104,Bethel,US,41.3712,-73.414,85.87,47,3,3.0,clear sky
105,Port Blair,IN,11.6667,92.75,81.46,83,100,8.99,overcast clouds
106,Kokstad,ZA,-30.5472,29.4241,49.23,91,98,1.99,light rain
107,Flinders,AU,-34.5833,150.8552,53.38,70,87,6.85,overcast clouds
108,Kavieng,PG,-2.5744,150.7967,83.08,72,93,14.45,overcast clouds
109,Caceres,ES,39.522,-6.3748,85.51,23,32,3.91,scattered clouds
110,Vostok,RU,46.4856,135.8833,67.98,97,100,2.55,overcast clouds
111,Loubomo,CG,-4.1997,12.6739,66.96,88,7,8.41,clear sky
112,Mar Del Plata,AR,-38.0023,-57.5575,53.1,90,0,5.99,clear sky
113,Stornoway,GB,58.2093,-6.3865,52.93,84,75,2.3,broken clouds
114,Havre-Saint-Pierre,CA,50.2334,-63.5986,59.36,94,75,11.5,broken clouds
115,Yellowknife,CA,62.456,-114.3525,59.52,82,100,4.61,light intensity shower rain
116,Najran,SA,17.4924,44.1277,86.65,33,99,1.5,light rain
117,The Valley,AI,18.217,-63.0578,84.81,83,50,16.78,scattered clouds
118,Whitley Bay,GB,55.0397,-1.4471,64.99,87,20,9.22,few clouds
119,Biak,ID,-0.9131,122.8766,74.28,90,92,5.06,overcast clouds
120,Ovalle,CL,-30.5983,-71.2003,59.0,72,59,5.19,broken clouds
121,Kolokani,ML,13.5728,-8.0339,75.52,83,88,6.87,overcast clouds
122,Klyuchi,RU,52.2667,79.1667,64.56,86,100,6.46,overcast clouds
123,Saldanha,ZA,-33.0117,17.9442,44.65,80,15,9.37,few clouds
124,Skhisma,GR,35.2667,25.7167,82.83,58,0,10.0,clear sky
125,Tete,MZ,-16.1564,33.5867,66.92,49,13,1.48,few clouds
126,Itupiranga,BR,-5.1347,-49.3267,82.38,57,82,2.17,broken clouds
127,Takab,IR,36.4009,47.1133,72.0,36,39,5.1,scattered clouds
128,Alice Springs,AU,-23.7,133.8833,44.15,49,100,4.61,overcast clouds
129,Lasa,IT,46.6166,10.7002,63.48,84,27,6.33,scattered clouds
130,Villarrica,PY,-25.75,-56.4333,57.94,58,9,4.18,clear sky
131,Sioux Lookout,CA,50.1001,-91.917,84.38,29,12,11.16,few clouds
132,Nuuk,GL,64.1835,-51.7216,47.88,81,40,17.0,scattered clouds
133,Flin Flon,CA,54.7682,-101.865,66.04,63,100,4.61,overcast clouds
134,Whitehorse,CA,60.7161,-135.0538,72.1,45,75,6.91,broken clouds
135,Provideniya,RU,64.3833,-173.3,53.35,65,98,3.36,overcast clouds
136,Rio Grande,BR,-32.035,-52.0986,55.51,72,0,5.23,clear sky
137,Adrar,MR,20.5022,-10.0711,93.33,32,44,9.84,scattered clouds
138,Plettenberg Bay,ZA,-34.0527,23.3716,51.69,82,30,11.34,light rain
139,Vila Do Maio,CV,15.1333,-23.2167,78.51,78,98,10.38,overcast clouds
140,Chara,RU,56.9064,118.2631,64.89,71,100,2.64,overcast clouds
141,Tuktoyaktuk,CA,69.4541,-133.0374,42.8,70,75,8.05,broken clouds
142,Abu Kamal,SY,34.4506,40.9171,92.57,13,3,1.74,clear sky
143,San Lazaro,BZ,18.0387,-88.6622,83.12,76,90,7.83,overcast clouds
144,Ivanteyevka,RU,55.9711,37.9208,63.34,65,66,2.59,broken clouds
145,Grindavik,IS,63.8424,-22.4338,51.75,76,75,13.8,broken clouds
146,Souillac,MU,-20.5167,57.5167,70.18,68,40,18.41,scattered clouds
147,Nador,MA,35.174,-2.9287,80.85,89,0,5.75,clear sky
148,Cayenne,GF,4.9333,-52.3333,82.09,1,45,2.3,scattered clouds
149,Penzance,GB,50.1186,-5.5371,63.28,94,96,16.53,overcast clouds
150,Sisimiut,GL,66.9395,-53.6735,48.11,79,100,5.99,overcast clouds
151,Airai,TL,-8.9266,125.4092,58.1,94,67,3.98,broken clouds
152,Mackay,AU,-21.15,149.2,66.69,75,100,18.07,overcast clouds
153,Inhambane,MZ,-23.865,35.3833,66.07,78,1,7.67,clear sky
154,Kota Bahru,MY,6.1333,102.2386,74.7,92,100,7.27,overcast clouds
155,Pisco,PE,-13.7,-76.2167,64.45,72,0,6.91,clear sky
156,Abu Samrah,SY,35.3029,37.1841,80.83,39,0,7.72,clear sky
157,Grand Gaube,MU,-20.0064,57.6608,70.38,61,41,8.99,scattered clouds
158,Cape Town,ZA,-33.9258,18.4232,48.9,92,20,4.61,fog
159,Leshukonskoye,RU,64.8989,45.7622,60.75,89,84,2.1,broken clouds
160,Malaryta,BY,51.7905,24.074,66.33,72,100,12.48,light rain
161,Dalnerechensk,RU,45.9339,133.7225,71.53,96,92,7.23,overcast clouds
162,Mayo,US,38.8876,-76.5119,90.95,53,95,4.0,overcast clouds
163,Hasaki,JP,35.7333,140.8333,81.0,81,93,4.47,overcast clouds
164,Olga,RU,43.7444,135.2892,78.4,80,42,2.71,scattered clouds
165,Tocopilla,CL,-22.092,-70.1979,62.89,69,13,8.08,few clouds
166,Leo,BF,11.1,-2.1,77.52,77,57,3.24,broken clouds
167,Broken Hill,AU,-31.95,141.4333,52.48,46,100,12.66,overcast clouds
168,San Lawrenz,MT,36.0553,14.204,81.86,85,0,1.99,clear sky
169,Poya,NC,-21.35,165.15,68.4,79,99,12.8,overcast clouds
170,Kavaratti,IN,10.5669,72.642,80.91,83,93,18.88,overcast clouds
171,Balykshi,KZ,47.0667,51.8667,71.6,40,0,8.95,clear sky
172,Rawson,AR,-43.3002,-65.1023,47.93,53,2,5.41,clear sky
173,College,US,64.8569,-147.8028,77.58,39,100,2.13,overcast clouds
174,Klaksvik,FO,62.2266,-6.589,50.92,87,90,8.63,overcast clouds
175,Vestmannaeyjar,IS,63.4427,-20.2734,50.79,78,73,16.84,broken clouds
176,Mahebourg,MU,-20.4081,57.7,70.25,68,40,18.41,scattered clouds
177,Brae,GB,60.3964,-1.353,52.68,82,29,13.85,scattered clouds
178,Dingle,PH,10.9995,122.6711,76.21,89,100,4.65,overcast clouds
179,Laguna,US,38.421,-121.4238,97.09,42,0,9.22,clear sky
180,Cognac,FR,45.5,-0.25,72.37,64,0,5.75,clear sky
181,Charyshskoye,RU,51.3978,83.5598,57.49,93,66,3.91,broken clouds
182,Luang Prabang,LA,19.8856,102.1347,73.78,99,98,0.4,overcast clouds
183,Kahului,US,20.8947,-156.47,91.42,43,20,24.16,few clouds
184,Ojinaga,MX,29.5667,-104.4167,102.58,30,75,8.05,broken clouds
185,Sao Felix Do Xingu,BR,-6.6447,-51.995,82.53,41,34,2.17,scattered clouds
186,Naze,JP,28.3667,129.4833,81.52,90,100,26.08,overcast clouds
187,Talnakh,RU,69.4865,88.3972,47.21,76,78,16.64,broken clouds
188,Codrington,AU,-38.2667,141.9667,52.41,54,100,20.74,light rain
189,Castro,BR,-24.7911,-50.0119,50.23,64,3,3.83,clear sky
190,Curvelo,BR,-18.7564,-44.4308,73.4,37,14,1.52,few clouds
191,Port Hardy,CA,50.6996,-127.4199,71.78,73,20,12.66,fog
192,Mantova,IT,45.1667,10.7833,78.04,74,1,3.0,clear sky
193,Hithadhoo,MV,-0.6,73.0833,80.76,76,100,18.39,overcast clouds
194,Troitsk,RU,54.0979,61.5773,59.52,88,61,6.98,broken clouds
195,Isangel,VU,-19.55,169.2667,71.55,88,100,3.36,overcast clouds
196,Qorveh,IR,35.1664,47.8045,73.4,46,42,6.02,scattered clouds
197,Pangnirtung,CA,66.1451,-65.7125,60.8,55,100,21.85,light intensity shower rain
198,Ribeira Grande,PT,38.5167,-28.7,74.59,67,15,2.66,few clouds
199,Dombarovskiy,RU,50.7587,59.5386,64.76,73,60,6.76,broken clouds
200,Leningradskiy,RU,69.3833,178.4167,50.56,60,82,6.24,broken clouds
201,Launceston,AU,-41.45,147.1667,48.79,82,40,10.36,light rain
202,Wanaka,NZ,-44.7,169.15,32.38,82,25,3.91,scattered clouds
203,Puerto Baquerizo Moreno,EC,-0.9,-89.6,70.36,82,71,10.09,broken clouds
204,Bonfim,BR,3.0833,-59.95,74.77,91,98,2.42,overcast clouds
205,Tasiilaq,GL,65.6145,-37.6368,39.11,58,20,4.41,few clouds
206,Wenling,CN,28.3669,121.36,79.66,87,3,2.1,clear sky
207,Saskylakh,RU,71.9167,114.0833,57.49,96,100,10.16,light rain
208,Aksay,RU,47.26,39.87,79.25,42,7,8.99,clear sky
209,Savannah Bight,HN,16.45,-85.85,82.6,79,97,21.88,overcast clouds
210,Weatherford,US,32.7593,-97.7972,99.93,85,100,18.39,overcast clouds
211,Biloela,AU,-24.4167,150.5,56.88,67,86,6.13,overcast clouds
212,Urengoy,RU,65.9667,78.3667,47.8,71,0,15.03,clear sky
213,Namibe,AO,-15.1961,12.1522,61.74,88,77,4.23,broken clouds
214,Zhezkazgan,KZ,47.8043,67.7144,64.71,76,14,7.7,few clouds
215,San Cristobal,VE,7.7669,-72.225,78.24,60,76,5.14,broken clouds
216,Eureka,US,40.8021,-124.1637,88.66,74,65,5.01,broken clouds
217,Port Elizabeth,ZA,-33.918,25.5701,53.98,74,10,14.99,clear sky
218,Mwanza,TZ,-2.5167,32.9,69.17,60,0,3.04,clear sky
219,Portland,US,45.5234,-122.6762,103.55,33,38,7.4,scattered clouds
220,Chuy,UY,-33.6971,-53.4616,50.25,77,1,3.58,clear sky
221,Aguilas,ES,37.4063,-1.5829,80.83,78,55,8.79,broken clouds
222,Saint George,US,37.1041,-113.5841,99.63,32,0,4.61,clear sky
223,Chateaubelair,VC,13.2833,-61.25,79.32,83,27,13.42,scattered clouds
224,Wanning,CN,18.8003,110.3967,79.83,87,21,6.49,few clouds
225,Pacific Grove,US,36.6177,-121.9166,76.55,82,57,5.99,broken clouds
226,Ajaccio,FR,42.0,8.9167,73.45,83,0,5.75,clear sky
227,San Patricio,US,28.017,-97.5169,97.52,42,82,17.09,broken clouds
228,Buala,SB,-8.145,159.5921,82.92,73,33,7.94,scattered clouds
229,Port Macquarie,AU,-31.4333,152.9167,44.89,81,86,6.17,overcast clouds
230,Kehl,DE,48.573,7.8152,74.01,53,0,5.75,clear sky
231,Upernavik,GL,72.7868,-56.1549,44.74,83,100,5.75,overcast clouds
232,Lixourion,GR,38.2019,20.4314,79.02,76,0,7.4,clear sky
233,Jalu,LY,29.0331,21.5482,83.41,46,0,13.82,clear sky
234,Yatou,CN,37.15,122.3833,74.82,98,100,5.39,light rain
235,Coihaique,CL,-45.5752,-72.0662,35.71,91,100,5.46,overcast clouds
236,Grootfontein,NA,-19.5667,18.1167,62.26,24,2,6.73,clear sky
237,East London,ZA,-33.0153,27.9116,58.73,63,100,14.23,overcast clouds
238,Kunstat,CZ,49.5065,16.5172,62.73,78,91,11.23,overcast clouds
239,Kirkwall,GB,58.9848,-2.9587,53.96,87,35,3.44,scattered clouds
240,Salalah,OM,17.0151,54.0924,75.45,91,68,6.51,broken clouds
241,Binga,ZW,-17.6203,27.3414,59.16,45,0,1.61,clear sky
242,Tacuarembo,UY,-31.7333,-55.9833,50.81,77,0,3.18,clear sky
243,Westport,US,41.1415,-73.3579,87.82,46,10,5.01,clear sky
244,Bengkulu,ID,-3.8004,102.2655,76.71,86,100,4.47,overcast clouds
245,Nalut,LY,30.3333,10.85,85.24,17,0,9.46,clear sky
246,Walkerton,US,41.4667,-86.4831,83.39,52,20,5.75,few clouds
247,Nanortalik,GL,60.1432,-45.2371,44.73,90,49,7.99,scattered clouds
248,Aden,YE,12.7794,45.0367,84.13,79,6,7.09,clear sky
249,Hihya,EG,30.6713,31.588,73.99,73,1,5.01,clear sky
250,Inuvik,CA,68.3499,-133.7218,49.84,64,99,5.06,overcast clouds
251,Colon,PA,9.3592,-79.9014,85.35,78,100,10.78,overcast clouds
252,Fortuna,US,40.5982,-124.1573,74.93,72,20,13.8,few clouds
253,Port Lincoln,AU,-34.7333,135.8667,53.01,75,48,19.08,scattered clouds
254,San Juan De Los Morros,VE,9.9115,-67.3538,81.16,66,56,2.68,broken clouds
255,Kawalu,ID,-7.3817,108.2082,70.77,96,96,2.04,overcast clouds
256,Hirara,JP,24.8,125.2833,82.67,89,75,5.75,broken clouds
257,Sid,RS,45.1283,19.2264,69.55,94,68,7.56,broken clouds
258,Murgud,IN,16.4,74.2,72.41,96,100,4.03,overcast clouds
259,Kathmandu,NP,27.7167,85.3167,68.14,95,100,1.92,moderate rain
260,Damavand,IR,35.7178,52.065,71.56,48,83,3.31,broken clouds
261,Bairiki,KI,1.3292,172.9752,81.16,68,82,17.76,broken clouds
262,Inongo,CD,-1.95,18.2667,73.29,63,78,2.84,broken clouds
263,Khani,GE,41.9563,42.9566,63.97,88,23,3.09,few clouds
264,Spirit River,CA,55.7833,-118.8361,70.41,57,81,2.55,broken clouds
265,Kasongo-Lunda,CD,-6.4667,16.8167,72.59,35,1,2.28,clear sky
266,Tual,ID,-5.6667,132.75,79.11,87,62,19.44,broken clouds
267,Ciudad Ojeda,VE,10.1964,-71.3082,88.57,58,4,8.7,clear sky
268,Constitucion,CL,-35.3333,-72.4167,52.97,80,100,3.83,overcast clouds
269,Lagoa,PT,39.05,-27.9833,73.4,66,0,1.63,clear sky
270,Unai,BR,-16.3575,-46.9061,75.92,29,0,0.78,clear sky
271,Svetlaya,RU,46.5389,138.3297,74.21,76,10,7.4,clear sky
272,Kamenka,RU,51.3223,42.7678,69.01,68,100,10.38,overcast clouds
273,Narsaq,GL,60.9167,-46.05,46.65,85,10,7.67,clear sky
274,Venancio Aires,BR,-29.6064,-52.1919,55.83,81,3,0.6,clear sky
275,Belyy Yar,RU,53.6039,91.3903,62.49,88,0,6.71,light rain
276,Tarauaca,BR,-8.1614,-70.7656,83.32,56,83,3.74,broken clouds
277,Ipixuna,BR,-1.7625,-48.8043,74.59,96,98,2.71,moderate rain
278,Sambava,MG,-14.2667,50.1667,69.58,87,63,9.24,light rain
279,Asau,RO,46.4333,26.4,69.28,90,51,4.68,light rain
280,Barsovo,RU,61.1667,73.1667,69.93,80,61,7.49,broken clouds
281,Menongue,AO,-14.6585,17.691,55.2,26,1,1.81,clear sky
282,Marsh Harbour,BS,26.5412,-77.0636,83.66,71,67,14.63,broken clouds
283,Raga,SS,8.4596,25.678,68.86,96,93,4.63,overcast clouds
284,Xining,CN,36.6167,101.7667,53.51,86,38,2.73,scattered clouds
285,Bathsheba,BB,13.2167,-59.5167,83.05,90,75,19.57,broken clouds
286,Ilhabela,BR,-23.7781,-45.3581,61.7,76,27,5.1,scattered clouds
287,Mbuguni,TZ,-3.5667,36.95,67.39,69,96,5.73,overcast clouds
288,Provost,CA,52.3501,-110.2683,77.45,53,83,8.97,broken clouds
289,Panaba,MX,21.2833,-88.2667,86.4,57,100,15.64,overcast clouds
290,Revin,FR,49.9404,4.635,69.6,56,76,3.13,broken clouds
291,Zhigansk,RU,66.7697,123.3711,65.5,83,94,11.39,overcast clouds
292,Karratha,AU,-20.7377,116.8463,68.97,56,31,3.24,scattered clouds
293,Forbes,AU,-33.3833,148.0167,51.93,64,100,7.9,overcast clouds
294,Eenhana,NA,-17.4667,16.3333,60.1,28,2,4.74,clear sky
295,Roald,NO,62.5833,6.1333,61.9,94,75,3.44,light rain
296,Thanh Hoa,VN,19.8,105.7667,79.93,92,100,2.26,overcast clouds
297,Wiang Sa,TH,8.6359,99.3666,76.26,93,99,2.17,overcast clouds
298,Asyut,EG,27.181,31.1837,87.21,17,0,5.91,clear sky
299,Chambishi,ZM,-12.6325,28.0537,58.98,44,3,3.71,clear sky
300,Coahuayana,MX,18.7333,-103.6833,87.53,62,96,5.86,overcast clouds
301,Calvinia,ZA,-31.4707,19.776,39.09,88,4,2.86,clear sky
302,Kanniyakumari,IN,8.0833,77.5667,79.16,88,46,12.73,scattered clouds
303,Kruisfontein,ZA,-34.0033,24.7314,49.77,76,3,12.97,clear sky
304,Kijang,KR,35.2442,129.2139,82.13,95,100,1.39,overcast clouds
305,Bah,IN,26.87,78.5975,86.07,70,100,2.95,overcast clouds
306,Hit,IQ,33.6416,42.8251,95.02,11,0,3.56,clear sky
307,Karakol,KG,42.4907,78.3936,56.84,79,93,2.82,overcast clouds
308,Xichang,CN,27.8964,102.2634,65.71,95,100,0.47,overcast clouds
309,Peterhead,GB,57.5058,-1.7981,57.51,90,100,10.07,overcast clouds
310,Ponta Delgada,PT,37.7333,-25.6667,72.32,83,20,5.75,few clouds
311,Saint-Augustin,CA,51.226,-58.6502,68.54,68,84,14.65,broken clouds
312,Tautira,PF,-17.7333,-149.15,77.41,74,17,23.24,light rain
313,West Des Moines,US,41.572,-93.7453,89.89,37,0,9.22,clear sky
314,West Bay,KY,19.3667,-81.4167,88.07,73,9,1.99,clear sky
315,Road Town,VG,18.4167,-64.6167,82.26,82,35,18.32,scattered clouds
316,Dauphin,CA,51.1494,-100.0502,79.14,54,100,6.35,overcast clouds
317,Aquiraz,BR,-3.9014,-38.3911,79.18,84,44,8.16,scattered clouds
318,Batemans Bay,AU,-35.7167,150.1833,42.1,67,81,6.53,broken clouds
319,Luderitz,NA,-26.6481,15.1594,54.16,63,57,21.77,broken clouds
320,Stutterheim,ZA,-32.5708,27.424,45.54,83,100,6.11,overcast clouds
321,Santiago,CL,-33.4569,-70.6483,61.99,66,100,1.43,overcast clouds
322,Morristown,US,36.214,-83.2949,86.31,65,0,1.99,clear sky
323,Ayan,RU,56.45,138.1667,57.42,90,78,7.61,broken clouds
324,Kiama,AU,-34.6833,150.8667,53.58,72,83,7.0,broken clouds
325,Norman Wells,CA,65.282,-126.8329,66.24,52,75,10.36,broken clouds
326,Lorengau,PG,-2.0226,147.2712,82.38,70,81,6.58,broken clouds
327,Puerto Escondido,MX,15.85,-97.0667,84.58,77,78,7.58,broken clouds
328,Hamilton,US,39.1834,-84.5333,85.05,46,0,3.44,clear sky
329,Hambantota,LK,6.1241,81.1185,77.34,100,20,4.61,few clouds
330,Paita,PE,-5.0892,-81.1144,65.98,81,12,17.72,few clouds
331,Muisne,EC,0.6,-80.0333,75.83,83,95,10.2,overcast clouds
332,Waipawa,NZ,-41.4122,175.5153,40.91,89,100,22.12,light rain
333,Hami,CN,42.8,93.45,85.78,20,100,10.45,overcast clouds
334,Meulaboh,ID,4.1363,96.1285,75.83,91,77,3.24,broken clouds
335,Kopavogur,IS,64.1123,-21.913,50.22,70,13,8.1,few clouds
336,Persan,FR,49.15,2.2667,75.81,67,0,8.05,clear sky
337,Atar,MR,20.5169,-13.0499,87.03,50,99,11.03,moderate rain
338,Olinda,BR,-8.0089,-34.8553,74.93,83,75,5.75,moderate rain
339,Mujiayingzi,CN,42.1167,118.7833,68.58,86,32,6.24,scattered clouds
340,Marawi,PH,7.9986,124.2928,68.92,92,100,2.73,overcast clouds
341,Jertih,MY,5.7336,102.4897,75.13,92,100,5.21,overcast clouds
342,Wagar,SD,16.1525,36.2032,88.43,49,100,17.2,overcast clouds
343,Tabou,CI,4.423,-7.3528,74.59,80,32,7.76,scattered clouds
344,Thompson,CA,55.7435,-97.8558,69.96,40,75,5.75,broken clouds
345,Lokosovo,RU,61.1333,74.8167,65.14,82,68,8.46,broken clouds
346,Rameshki,RU,57.3439,36.0453,53.46,79,62,2.95,broken clouds
347,Kirakira,SB,-10.4544,161.9205,82.17,74,14,6.98,few clouds
348,Tornio,FI,65.8481,24.1466,53.62,76,100,7.2,overcast clouds
349,Mishan,CN,45.55,131.8833,73.98,89,98,2.82,overcast clouds
350,Odweyne,SO,9.4092,45.064,73.89,50,65,16.89,broken clouds
351,Belmonte,BR,-15.8631,-38.8828,74.5,91,0,10.58,clear sky
352,Andros Town,BS,24.7,-77.7667,84.43,70,5,17.83,clear sky
353,Kuyanovo,RU,55.8014,54.5372,65.12,66,86,2.55,overcast clouds
354,Jieznas,LT,54.6,24.1667,56.79,80,91,8.08,overcast clouds
355,Hovd,MN,48.0056,91.6419,65.55,39,80,5.44,broken clouds
356,Volksrust,ZA,-27.3654,29.8818,48.47,54,43,4.03,scattered clouds
357,Mogwase,ZA,-25.185,27.2665,59.41,30,41,6.33,scattered clouds
358,Novo Aripuana,BR,-5.1206,-60.3797,83.1,51,68,3.4,broken clouds
359,Vanimo,PG,-2.6741,141.3028,77.92,86,28,4.81,scattered clouds
360,Garissa,KE,-0.4536,39.6401,73.35,77,17,16.73,few clouds
361,Jijiga,ET,9.35,42.8,65.55,67,69,19.55,broken clouds
362,Dobrokoz,HU,46.4218,18.2395,67.01,83,6,7.52,clear sky
363,Talavera,PH,15.6167,120.9333,75.78,95,100,2.93,overcast clouds
364,Alta Floresta,BR,-9.8756,-56.0861,80.46,29,3,3.22,clear sky
365,Milkovo,RU,54.7167,158.6167,52.32,95,100,6.4,light rain
366,Krasnyy Yar,RU,46.5331,48.3456,76.93,56,10,4.92,clear sky
367,Rosetta,EG,31.4044,30.4164,78.49,72,0,11.88,clear sky
368,Ucluelet,CA,48.9329,-125.5528,68.09,83,7,1.01,clear sky
369,Banjar,ID,-8.19,114.9675,73.81,86,72,5.28,broken clouds
370,Cuiluan,CN,47.72,128.648,70.23,93,51,1.63,broken clouds
371,Berlevag,NO,70.8578,29.0864,50.0,93,100,17.27,overcast clouds
372,Emerald,AU,-23.5333,148.1667,56.03,70,100,11.86,overcast clouds
373,Chunhuhub,MX,19.55,-88.6833,90.59,44,99,7.49,overcast clouds
374,Noumea,NC,-22.2763,166.4572,70.0,99,100,16.42,overcast clouds
375,Ahipara,NZ,-35.1667,173.1667,54.0,60,64,19.33,broken clouds
376,Anshan,CN,41.1236,122.99,74.79,87,1,3.42,clear sky
377,Khandyga,RU,62.6667,135.6,64.76,95,100,5.46,moderate rain
378,Matara,LK,5.9485,80.5353,76.87,91,100,8.52,overcast clouds
379,Houston,US,29.7633,-95.3633,96.33,54,0,14.97,clear sky
380,Progreso,MX,21.2833,-89.6667,81.54,75,94,13.8,overcast clouds
381,Sneek,NL,53.033,5.6589,67.91,80,97,1.01,overcast clouds
382,Vardo,NO,70.3705,31.1107,49.98,100,100,14.97,overcast clouds
383,Sosnovo-Ozerskoye,RU,52.5249,111.5418,54.32,90,100,5.17,overcast clouds
384,Saint-Francois,FR,46.4154,3.9054,67.44,64,0,2.3,clear sky
385,Husavik,IS,66.0449,-17.3389,41.9,95,100,15.95,overcast clouds
386,Geraldton,AU,-28.7667,114.6,50.41,87,40,9.22,scattered clouds
387,Kachug,RU,53.9606,105.8817,59.16,98,100,4.36,light rain
388,Sayyan,YE,15.1718,44.3244,64.53,61,92,3.29,overcast clouds
389,Safranbolu,TR,41.2508,32.6942,65.98,75,0,2.3,clear sky
390,Henties Bay,NA,-22.116,14.2845,53.42,93,52,9.1,broken clouds
391,Samus,RU,56.7475,84.6992,59.23,96,1,1.99,clear sky
392,Oussouye,SN,12.485,-16.5469,77.14,88,99,9.84,light rain
393,Nijar,ES,36.9665,-2.206,83.66,62,0,5.75,clear sky
394,Mackenzie,CA,55.2999,-123.1698,79.79,44,44,1.81,scattered clouds
395,Ilebo,CD,-4.3167,20.5833,73.89,48,23,1.48,few clouds
396,Gambela,ET,8.25,34.5833,70.38,99,100,1.1,light rain
397,Nevel,RU,56.0209,29.9284,52.39,78,37,1.57,scattered clouds
398,Usogorsk,RU,63.4106,48.6872,61.99,87,96,4.12,overcast clouds
399,Srednekolymsk,RU,67.45,153.6833,66.63,36,5,16.46,clear sky
400,Puntarenas,CR,9.9763,-84.8384,81.72,81,98,4.29,overcast clouds
401,Mukhen,RU,48.1,136.1,73.94,86,23,4.79,few clouds
402,Sao Jose Da Coroa Grande,BR,-8.8978,-35.1478,76.6,86,99,9.26,overcast clouds
403,Presque Isle,US,46.6811,-68.0159,75.18,59,13,1.99,few clouds
404,Tucuma,BR,-0.1833,-50.05,79.23,80,100,7.05,overcast clouds
405,Bafra,TR,41.5678,35.9069,75.81,88,0,5.37,clear sky
406,Sao Joao Da Barra,BR,-21.6403,-41.0511,69.89,68,61,9.95,broken clouds
407,Korla,CN,41.7597,86.1469,74.59,41,6,6.93,clear sky
408,Taveta,KE,-3.3963,37.6736,68.23,69,94,5.75,overcast clouds
409,Bagli,IN,22.65,76.35,73.65,87,89,5.7,overcast clouds
410,Arroio Grande,BR,-32.2375,-53.0869,48.99,77,0,3.18,clear sky
411,Fuerte Olimpo,PY,-21.0415,-57.8738,70.2,39,0,1.39,clear sky
412,Beringovskiy,RU,63.05,179.3167,52.09,69,100,1.3,overcast clouds
413,Schoningen,DE,52.138,10.9675,70.0,59,100,4.52,overcast clouds
414,Kirkland Lake,CA,48.1446,-80.0377,76.51,47,14,7.09,few clouds
415,Shimoda,JP,34.6667,138.95,85.1,83,4,11.63,clear sky
416,Athabasca,CA,54.7169,-113.2854,76.86,44,13,10.27,few clouds
417,Kang,BW,-23.6752,22.7876,55.62,31,39,9.91,scattered clouds
418,Samarai,PG,-10.6167,150.6667,80.38,81,9,11.36,clear sky
419,Poltavka,RU,54.3663,71.7632,63.05,78,100,8.41,overcast clouds
420,Koungou,YT,-12.7336,45.2042,73.11,88,0,8.05,clear sky
421,Fonte Boa,BR,-2.4959,-66.2662,77.95,85,45,1.41,scattered clouds
422,Seoul,KR,37.5683,126.9778,81.97,76,0,5.75,light rain
423,Kautokeino,NO,69.0125,23.0412,45.0,86,84,7.05,broken clouds
424,Sola,VU,-13.8833,167.55,81.27,83,100,0.0,overcast clouds
425,Jumla,NP,29.2747,82.1838,62.01,95,100,1.07,overcast clouds
426,Ostersund,SE,63.1792,14.6357,63.05,55,75,8.05,broken clouds
427,Bonthe,SL,7.5264,-12.505,75.85,76,79,6.96,broken clouds
428,Havelock,US,34.8791,-76.9013,84.16,92,97,1.01,overcast clouds
429,Qazvin,IR,36.2797,50.0049,72.57,58,2,7.61,clear sky
430,Padang,ID,-0.9492,100.3543,75.92,86,85,3.69,overcast clouds
431,Krasnoselkup,RU,65.7,82.4667,47.57,70,0,18.34,clear sky
432,Tibati,CM,6.4667,12.6333,64.35,97,80,2.24,broken clouds
433,Morehead,US,37.2711,-87.1764,78.94,74,40,3.44,scattered clouds
434,Marshalltown,US,42.0494,-92.908,85.33,29,1,6.13,clear sky
435,Polewali,ID,-3.4324,119.3435,75.74,91,100,3.2,overcast clouds
436,Danshui,CN,22.7984,114.4672,81.72,83,23,2.04,few clouds
437,Northam,GB,51.0333,-4.2167,65.39,98,100,14.7,overcast clouds
438,Dangriga,BZ,16.9692,-88.2321,81.57,82,100,10.92,overcast clouds
439,Sao Sebastiao,BR,-23.76,-45.4097,60.87,78,40,3.94,scattered clouds
440,Birjand,IR,32.8663,59.2211,73.26,44,41,10.98,scattered clouds
441,Hvolsvollur,IS,63.7533,-20.2243,45.7,85,34,5.79,scattered clouds
442,Nantucket,US,41.2835,-70.0995,86.05,65,0,19.57,clear sky
443,Nouadhibou,MR,20.931,-17.0347,70.34,90,17,15.03,few clouds
444,Bridgewater,CA,44.3835,-64.5155,77.11,71,43,5.99,scattered clouds
445,Sindor,RU,62.8629,51.8905,61.61,63,73,1.72,broken clouds
446,Lipin Bor,RU,60.2622,37.9763,56.21,91,23,7.58,few clouds
447,Wabana,CA,47.6332,-52.9481,68.09,92,100,10.94,overcast clouds
448,Taiyuan,CN,37.8694,112.5603,69.66,78,64,2.24,mist
449,Salinopolis,BR,-0.6136,-47.3561,80.17,80,94,11.16,overcast clouds
450,Boende,CD,-0.2167,20.8667,72.88,81,94,2.08,overcast clouds
451,Soyo,AO,-6.1349,12.3689,70.77,90,28,8.34,scattered clouds
452,Utete,TZ,-7.986,38.758,72.37,84,100,1.5,overcast clouds
453,Sabha,LY,27.0377,14.4283,88.29,22,0,11.23,clear sky
454,Emba,KZ,48.8264,58.1442,69.26,65,51,5.26,broken clouds
455,Myitkyina,MM,25.3833,97.4,74.68,99,100,1.88,overcast clouds
456,Lagos,NG,6.5833,3.75,75.31,83,96,6.82,overcast clouds
457,Shelburne,CA,44.0787,-80.2041,76.77,45,4,10.31,clear sky
458,Sorong,ID,-0.8833,131.25,77.14,89,95,8.12,overcast clouds
459,Pevek,RU,69.7008,170.3133,45.16,70,9,13.58,clear sky
460,Asheboro,US,35.7079,-79.8136,91.02,58,0,1.01,clear sky
461,Cimislia,MD,46.52,28.7842,71.74,52,16,5.44,few clouds
462,Mindelo,CV,16.8901,-24.9804,76.3,77,88,9.57,overcast clouds
463,Amahai,ID,-3.3333,128.9167,76.84,90,96,3.24,light rain
464,Khandbari,NP,27.3747,87.2039,72.37,94,100,0.18,overcast clouds
465,Likasi,CD,-10.9814,26.7333,60.67,49,0,3.36,clear sky
466,Kandalaksha,RU,67.162,32.4123,51.1,98,100,4.09,overcast clouds
467,Richards Bay,ZA,-28.783,32.0377,61.95,87,64,4.36,broken clouds
468,Rognan,NO,67.0953,15.3878,60.89,66,1,7.76,clear sky
469,Kankaanpaa,FI,61.8,22.4167,50.76,92,6,3.51,clear sky
470,Kiunga,PG,-6.1219,141.2906,74.43,98,97,3.42,overcast clouds
471,Peto,MX,20.1333,-88.9167,89.62,45,99,5.1,overcast clouds
472,Darhan,MN,49.4867,105.9228,59.56,64,75,6.26,broken clouds
473,Bubaque,GW,11.2833,-15.8333,79.29,77,91,15.64,overcast clouds
474,Nishihara,JP,26.1842,127.7558,80.65,94,75,11.5,mist
475,Tiznit,MA,29.5833,-9.5,88.66,21,0,2.1,clear sky
476,Villa Bruzual,VE,9.3328,-69.1208,81.97,82,32,2.51,scattered clouds
477,Collie,AU,-33.3667,116.15,46.89,80,100,4.5,overcast clouds
478,Tilichiki,RU,60.4667,166.1,50.29,91,100,6.49,light rain
479,Simao,CN,22.7886,100.9748,63.79,99,100,0.89,overcast clouds
480,Marsa Matruh,EG,31.3525,27.2453,78.01,78,0,11.32,clear sky
481,Hendaye,FR,43.3717,-1.7738,73.35,78,100,3.44,overcast clouds
482,Tecoanapa,MX,16.5167,-98.75,85.39,66,84,6.71,broken clouds
483,Fenyi,CN,27.8112,114.6681,76.59,89,6,1.19,clear sky
484,Elat,IL,29.5581,34.9482,85.59,39,30,8.84,scattered clouds
485,Ewa Beach,US,21.3156,-158.0072,86.09,60,3,17.0,clear sky
486,Wattegama,LK,6.7989,81.4808,74.52,94,100,3.98,overcast clouds
487,Saint Anthony,US,45.0205,-93.218,89.29,45,25,4.0,scattered clouds
488,Baykit,RU,61.67,96.37,63.07,96,9,4.23,clear sky
489,Bilma,NE,18.6853,12.9164,91.71,24,43,9.06,scattered clouds
490,Pauini,BR,-7.7136,-66.9764,85.41,44,52,0.78,broken clouds
491,Necochea,AR,-38.5473,-58.7368,50.85,74,100,7.87,overcast clouds
492,Mantua,IT,45.1667,10.7833,78.04,73,1,3.0,clear sky
493,Polovinnoye,RU,54.7914,65.9864,59.05,94,12,7.36,few clouds
494,Charters Towers,AU,-20.1,146.2667,59.67,84,100,10.65,overcast clouds
495,Lesozavodsk,RU,45.4794,133.4244,72.0,97,100,8.61,overcast clouds
496,Hervey Bay,AU,-25.2986,152.8535,60.03,84,90,4.0,overcast clouds
497,Mahanoro,MG,-19.9,48.8,64.76,92,8,3.89,clear sky
498,Oranjemund,NA,-28.55,16.4333,52.18,85,5,12.86,clear sky
499,Isiro,CD,2.7739,27.616,65.26,98,99,2.39,overcast clouds
500,Saint-Pierre,RE,-21.3393,55.4781,71.19,74,20,4.61,few clouds
501,Huai Yot,TH,7.7893,99.6348,75.13,95,99,1.1,overcast clouds
502,Marevo,RU,57.3146,32.0804,52.56,83,52,3.69,broken clouds
503,Somerset East,ZA,-32.7217,25.588,44.74,84,83,5.66,broken clouds
504,Nangong,CN,37.3581,115.3744,76.17,89,1,0.29,clear sky
505,Bernardino De Campos,BR,-23.0131,-49.4742,58.68,38,1,3.8,clear sky
506,Montorio Al Vomano,IT,42.5831,13.6383,75.43,86,18,2.46,light rain
507,Codajas,BR,-3.8367,-62.0569,81.7,66,92,3.94,overcast clouds
508,Neiafu,TO,-18.65,-173.9833,78.55,82,5,21.25,clear sky
509,Quelimane,MZ,-17.8786,36.8883,69.75,83,20,4.61,few clouds
510,Hatillo,PR,18.4863,-66.8254,87.4,83,89,13.0,overcast clouds
511,Talisayan,PH,6.9872,121.9272,78.44,86,100,4.5,light rain
512,Shadegan,IR,30.6497,48.6647,94.71,54,98,9.95,overcast clouds
513,Kalianget,ID,-7.05,113.9333,77.63,79,46,8.48,scattered clouds
514,Adre,TD,13.4667,22.2,75.6,75,93,6.55,light rain
515,Avera,US,33.194,-82.5271,76.51,53,99,7.09,overcast clouds
516,Weinan,CN,34.5036,109.5089,73.58,79,0,1.7,clear sky
517,Cap Malheureux,MU,-19.9842,57.6142,70.47,60,41,10.0,scattered clouds
518,Oum Hadjer,TD,13.2954,19.6966,83.55,57,90,4.52,overcast clouds
519,Axim,GH,4.8699,-2.2405,74.68,83,65,10.87,broken clouds
520,Miri,MY,4.4148,114.0089,76.14,91,98,3.51,overcast clouds
521,Neuquen,AR,-38.9516,-68.0591,55.29,38,0,6.91,clear sky
522,Nouakchott,MR,18.0858,-15.9785,78.73,80,100,13.09,overcast clouds
523,Iranshahr,IR,27.2025,60.6848,86.34,66,78,0.0,broken clouds
524,Bentiu,SS,9.2333,29.8333,70.77,91,100,3.83,moderate rain
525,Sitka,US,57.0531,-135.33,61.18,96,100,2.13,overcast clouds
526,Pokrovsk,UA,48.282,37.1758,65.17,54,68,8.79,broken clouds
527,Nizwa,OM,22.9333,57.5333,82.99,68,90,3.42,overcast clouds
528,Erzin,TR,36.9559,36.2,75.38,62,0,0.96,clear sky
529,Dovbysh,UA,50.3733,27.9874,69.64,46,100,11.59,overcast clouds
530,Alekseyevka,RU,50.6309,38.6903,63.77,69,80,6.35,broken clouds
531,West Fargo,US,46.875,-96.9004,92.01,39,0,17.27,clear sky
532,Andenes,NO,69.3143,16.1194,55.38,76,0,2.3,clear sky
533,Ketchikan,US,55.3422,-131.6461,67.8,82,95,2.98,overcast clouds
534,Ballina,AU,-28.8667,153.5667,52.02,99,100,3.51,overcast clouds
535,Los Llanos De Aridane,ES,28.6585,-17.9182,69.55,92,100,14.97,overcast clouds
536,Ambilobe,MG,-13.2,49.05,65.93,83,0,4.27,clear sky
537,La Paz,BO,-16.5,-68.15,58.3,25,62,4.56,broken clouds
538,Jiexiu,CN,37.0244,111.9125,69.84,79,89,1.25,overcast clouds
539,Garmsar,IR,35.2182,52.3409,87.85,31,37,4.83,scattered clouds
540,Teknaf,BD,20.8624,92.3058,81.61,83,100,2.57,overcast clouds
541,Juan Lacaze,UY,-34.4342,-57.4381,57.11,73,5,6.17,clear sky
542,Mathbaria,BD,22.2876,89.9593,81.19,87,100,6.35,overcast clouds
543,Mastic Beach,US,40.7668,-72.8521,89.17,42,20,11.5,few clouds
544,Uppsala,SE,60.0,17.75,63.91,63,100,5.75,overcast clouds
545,Tefe,BR,-3.3542,-64.7114,78.03,85,100,2.98,overcast clouds
546,Lakatoro,VU,-16.0999,167.4164,79.05,76,100,4.09,overcast clouds
547,Seryshevo,RU,51.0933,128.3786,72.01,77,52,4.32,broken clouds
548,Sawakin,SD,19.1059,37.3321,91.99,45,7,2.24,clear sky
549,Mehamn,NO,71.0357,27.8492,49.95,93,100,6.91,light intensity drizzle
550,Torbay,CA,47.6666,-52.7314,70.57,90,100,12.66,overcast clouds
551,Kununurra,AU,-15.7667,128.7333,51.78,87,18,0.0,few clouds
552,Vila Franca Do Campo,PT,37.7167,-25.4333,72.01,83,24,4.85,few clouds
553,Mana,GF,5.6592,-53.7767,78.93,84,24,7.27,few clouds
554,Williams Lake,CA,52.1415,-122.1445,97.05,24,45,3.0,scattered clouds
555,Kenitra,MA,34.261,-6.5802,75.96,75,0,5.93,clear sky
556,Cambridge,CA,43.3601,-80.3127,81.23,50,4,1.01,clear sky
557,Kedrovka,RU,55.5333,86.05,65.28,94,70,3.47,broken clouds
558,Petrozavodsk,RU,61.7849,34.3469,50.58,93,99,7.74,overcast clouds
559,Guangyuan,CN,32.442,105.823,74.62,92,23,1.59,few clouds
560,Eskil,TR,38.4017,33.4131,73.6,28,0,5.79,clear sky
561,Atasu,KZ,48.6814,71.6433,63.95,69,97,5.26,overcast clouds
562,Mao,ES,39.8885,4.2658,79.36,69,0,4.61,clear sky
563,Mount Gambier,AU,-37.8333,140.7667,45.46,89,100,13.78,light rain
564,Camapua,BR,-19.5314,-54.0439,72.72,34,0,3.2,clear sky
565,Cordon,PH,16.6744,121.4658,74.46,92,89,3.29,overcast clouds
566,Langham,CA,52.3668,-106.9679,66.04,91,100,8.52,overcast clouds
567,Moyobamba,PE,-6.05,-76.9667,79.43,59,26,2.62,scattered clouds
568,Athens,GR,37.9795,23.7162,83.25,54,0,4.0,clear sky
569,Vila Velha,BR,-20.3297,-40.2925,71.55,68,75,13.8,broken clouds
570,Eyl,SO,7.9803,49.8164,75.87,80,100,21.88,overcast clouds
571,Jiuquan,CN,39.7432,98.5174,76.26,28,100,4.32,overcast clouds
572,Dunedin,NZ,-45.8742,170.5036,44.8,71,100,11.99,overcast clouds
573,Sabang,ID,5.8933,95.3214,82.24,75,99,19.66,overcast clouds
574,San Juan,AR,-31.5375,-68.5364,62.56,26,1,12.33,clear sky
575,Bouloupari,NC,-21.8667,166.05,67.91,82,88,13.6,overcast clouds
576,Alora,ES,36.8236,-4.7058,80.49,85,0,4.99,clear sky
577,Auki,SB,-8.7676,160.7034,82.4,70,66,3.94,broken clouds
578,Marrakesh,MA,31.6315,-8.0083,93.27,31,40,3.44,scattered clouds
579,Okhtyrka,UA,50.3104,34.8988,61.75,69,6,5.88,clear sky
580,Batagay-Alyta,RU,67.8006,130.4114,64.94,80,99,2.98,overcast clouds
581,Tucumcari,US,35.1717,-103.725,88.95,45,0,11.5,clear sky
582,Riviere-Au-Renard,CA,48.9957,-64.3971,65.21,86,65,4.9,broken clouds
583,San Mateo Del Mar,MX,16.2,-95.0,87.84,61,60,27.22,broken clouds
584,Mnogovershinnyy,RU,53.9353,139.9242,52.97,98,100,3.42,overcast clouds
585,Waingapu,ID,-9.6567,120.2641,72.46,86,23,7.96,few clouds
586,Cotacachi,EC,0.3,-78.2667,65.75,65,65,5.06,light rain
587,Moorhead,US,46.8739,-96.7676,91.98,45,0,17.27,clear sky
588,Santa Cruz,BO,-17.8,-63.1667,75.04,35,2,9.35,clear sky
589,Ormara,PK,25.2088,64.6357,80.96,84,100,19.71,overcast clouds
590,Aksha,RU,50.2814,113.2867,57.34,85,5,2.28,clear sky
591,Khadyzhensk,RU,44.4256,39.5319,68.74,67,1,2.82,clear sky
592,Kamaishi,JP,39.2667,141.8833,77.83,71,0,2.37,clear sky
593,Homer,US,59.6425,-151.5483,61.03,89,100,5.99,overcast clouds
594,Olafsvik,IS,64.8945,-23.7142,49.53,68,4,10.0,clear sky
595,Rimini,IT,44.0241,12.5186,75.36,83,0,3.44,clear sky
596,Kizema,RU,61.113,44.8302,55.06,95,29,2.33,scattered clouds
597,Bilibino,RU,68.0546,166.4372,56.41,52,99,9.17,overcast clouds
598,Vilhena,BR,-12.7406,-60.1458,74.88,37,4,2.35,clear sky
599,Aberystwyth,GB,52.4155,-4.0829,64.89,99,100,13.96,light rain
600,Nabire,ID,-3.3667,135.4833,75.22,92,92,3.18,overcast clouds
601,Eyrarbakki,IS,63.863,-21.1481,49.21,74,27,11.1,scattered clouds
602,Khudumelapye,BW,-23.8833,24.75,60.24,29,65,7.11,broken clouds
603,Dukat,RU,62.55,155.55,50.65,68,74,7.78,broken clouds
604,Berezovyy,RU,51.6667,135.7,61.09,92,100,0.27,overcast clouds
605,Caldas Novas,BR,-17.7417,-48.625,74.01,38,26,4.36,scattered clouds
606,Belokurikha,RU,51.9959,84.9896,58.73,94,35,4.09,scattered clouds
607,Khulo,GE,41.644,42.3129,63.43,88,9,4.36,clear sky
608,Palmer,US,42.1584,-72.3287,82.67,49,40,9.22,scattered clouds
609,Mount Airy,US,36.4993,-80.6073,86.67,71,40,3.44,scattered clouds
610,Zdvinsk,RU,54.7021,78.661,59.58,86,65,7.27,broken clouds
611,Yako,BF,12.9667,-2.2667,79.57,67,3,5.88,clear sky
612,Smithers,CA,54.7804,-127.1743,85.53,35,35,3.62,scattered clouds
613,Canto Do Buriti,BR,-8.11,-42.9444,83.75,39,38,3.27,scattered clouds
614,Dormidontovka,RU,47.7702,134.9076,73.6,85,2,6.29,clear sky
615,Anzio,IT,41.4853,12.6179,81.99,85,0,8.57,clear sky
616,Kutum,SD,14.2,24.6667,76.48,64,89,8.39,moderate rain
617,Boysun,UZ,38.2061,67.1986,72.55,35,0,8.52,clear sky
618,Mogadishu,SO,2.0371,45.3438,76.12,83,90,18.21,overcast clouds
619,Mecca,SA,21.4267,39.8261,90.3,27,100,5.21,overcast clouds
620,Tezu,IN,27.9167,96.1667,75.47,98,98,2.64,overcast clouds
621,Russell,US,32.3502,-85.1999,90.97,50,90,5.28,overcast clouds
622,Victor Harbor,AU,-35.5667,138.6167,50.68,67,100,20.51,moderate rain
623,Aswan,EG,24.0934,32.907,89.82,18,2,10.09,clear sky
624,Seymchan,RU,62.8833,152.4333,61.39,48,1,7.0,clear sky
625,Wajima,JP,37.4,136.9,82.78,81,2,6.26,clear sky
626,Greenville,US,35.6127,-77.3663,90.12,60,0,6.91,clear sky
627,Campos Belos,BR,-13.0367,-46.7717,75.76,24,97,2.95,overcast clouds
628,Lamas,PE,-6.4167,-76.5333,84.67,66,46,2.19,scattered clouds
629,Kiisa,EE,59.2369,24.6889,58.48,93,8,4.72,clear sky
630,Kasempa,ZM,-13.4584,25.8338,58.55,41,0,4.18,clear sky
631,Bethlehem,BR,-1.4558,-48.5044,75.24,94,75,4.61,broken clouds
632,Puerto Leguizamo,CO,-0.1934,-74.7819,81.9,74,41,1.95,light rain
633,Kilindoni,TZ,-7.9139,39.6668,74.79,84,23,9.06,few clouds
634,Nhulunbuy,AU,-12.2333,136.7667,74.01,88,100,9.22,overcast clouds
635,Fayaoue,NC,-20.65,166.5333,71.83,83,100,32.08,overcast clouds
636,Ampanihy,MG,-24.7,44.75,68.52,71,84,2.84,broken clouds
637,Carutapera,BR,-1.195,-46.02,78.53,82,35,7.58,scattered clouds
638,Fasa,IR,28.9383,53.6482,71.6,86,100,4.97,overcast clouds
639,Jizan,SA,17.3333,42.6667,90.14,58,73,1.59,broken clouds
640,Along,IN,28.1667,94.7667,74.84,99,99,1.3,overcast clouds
641,Aykhal,RU,66.0,111.5,63.79,89,100,3.13,moderate rain
642,Dandong,CN,40.1292,124.3947,75.67,92,63,1.9,broken clouds
643,Arman,RU,59.7,150.1667,59.02,92,89,6.91,light rain
644,Tarabuco,BO,-19.1667,-64.9167,56.73,43,3,5.88,clear sky
645,Strezhevoy,RU,60.7333,77.5889,61.56,94,100,8.32,overcast clouds
646,Ahuimanu,US,21.4447,-157.8378,89.31,68,75,12.66,broken clouds
647,Morrope,PE,-6.5417,-80.0111,64.51,71,8,16.46,clear sky
648,San Antonio,US,29.4241,-98.4936,104.5,31,10,5.01,clear sky
649,Urucara,BR,-2.5364,-57.76,75.02,95,97,1.72,overcast clouds
650,West Plains,US,36.7281,-91.8524,70.63,89,100,6.91,overcast clouds
651,Tulun,RU,54.5611,100.5792,60.8,95,99,10.33,light rain
652,Iwanai,JP,42.9744,140.5089,77.59,79,21,7.76,few clouds
653,San Andres,CO,12.5847,-81.7006,84.22,79,75,12.66,broken clouds
654,Aklavik,CA,68.2191,-135.0107,50.0,76,100,4.61,overcast clouds
655,Daru,PG,-9.0763,143.2092,76.26,91,94,16.49,overcast clouds
656,High Level,CA,58.5169,-117.136,59.34,85,99,2.89,light rain
657,Kuusamo,FI,65.9667,29.1833,51.84,100,100,5.75,overcast clouds
658,Tumut,AU,-35.3,148.2167,42.22,71,93,3.62,overcast clouds
659,Lujan,AR,-34.5703,-59.105,62.02,59,56,5.01,broken clouds
660,Filingue,NE,14.3521,3.3168,91.24,40,76,5.61,broken clouds
661,Kisangani,CD,0.5167,25.2,70.16,98,96,1.9,overcast clouds
662,Vao,NC,-22.6667,167.4833,67.91,78,100,27.04,light rain
663,Arlit,NE,18.7369,7.3853,96.94,9,50,9.51,scattered clouds
664,Corner Brook,CA,48.9667,-57.9484,67.21,74,100,7.7,overcast clouds
665,Sotouboua,TG,8.5667,0.9833,70.7,93,64,3.02,broken clouds
666,Bristol,US,41.8334,-71.1662,86.59,49,4,5.99,clear sky
667,Riyadh,SA,24.6877,46.7219,96.94,45,96,8.61,overcast clouds
668,Nizhniy Kuranakh,RU,58.8353,125.4869,67.46,73,39,2.71,scattered clouds
669,Danville,US,36.586,-79.395,90.34,48,98,1.99,overcast clouds
670,Pemba,MZ,-12.974,40.5178,73.35,78,26,3.51,scattered clouds
671,Marzuq,YE,14.4,46.4667,79.59,58,53,15.66,light rain
672,Aleksandrovsk-Sakhalinskiy,RU,50.8975,142.1561,58.37,96,99,8.97,overcast clouds
673,Antofagasta,CL,-23.65,-70.4,57.4,80,10,6.53,clear sky
674,Si Bun Ruang,TH,16.9667,102.2833,78.31,84,100,2.26,light rain
675,Porto Novo,BJ,6.4965,2.6036,76.82,81,71,9.66,broken clouds
676,Itoman,JP,26.1247,127.6694,81.37,94,75,11.5,broken clouds
677,Notse,TG,6.95,1.1667,71.17,87,98,7.96,overcast clouds
678,Digri,PK,25.1558,69.1113,81.46,78,64,17.92,broken clouds
679,Vilyuysk,RU,63.7553,121.6247,65.88,86,27,4.76,scattered clouds
680,Toktogul,KG,41.8708,72.9402,63.72,77,39,0.67,scattered clouds
681,Haimen,CN,23.1935,116.6142,80.55,83,5,3.24,clear sky
682,Shellbrook,CA,53.2168,-106.4011,60.48,94,100,4.38,light rain
683,Yuancheng,CN,36.652,107.7896,67.08,84,58,4.34,broken clouds
684,Ballitoville,ZA,-29.539,31.2144,63.16,87,100,3.67,overcast clouds
685,Terebovlya,UA,49.3019,25.71,65.05,86,97,6.71,overcast clouds
686,Sao Filipe,CV,14.8961,-24.4956,77.38,79,92,8.95,overcast clouds
